{"address":"227 E Baseline Rd, Ste J2","attributes":["BikeParking: True","BusinessAcceptsBitcoin: False","BusinessAcceptsCreditCards: True","BusinessParking: {'garage': False, 'street': False, 'validated': False, 'lot': True, 'valet': False}","DogsAllowed: False","RestaurantsPriceRange2: 2","WheelchairAccessible: True"],"business_id":"0DI8Dt2PJp07XkVvIElIcQ","categories":["Tobacco Shops","Nightlife","Vape Shops","Shopping"],"city":"Tempe","hours":["Monday 11:0-21:0","Tuesday 11:0-21:0","Wednesday 11:0-21:0","Thursday 11:0-21:0","Friday 11:0-22:0","Saturday 10:0-22:0","Sunday 11:0-18:0"],"is_open":0,"latitude":33.3782141,"longitude":-111.936102,"name":"Innovative Vapors","neighborhood":"","postal_code":"85283","review_count":17,"stars":4.5,"state":"AZ","type":"business"}
{"address":"495 S Grand Central Pkwy","attributes":["BusinessAcceptsBitcoin: False","BusinessAcceptsCreditCards: True"],"business_id":"LTlCaCGZE14GuaUXUGbamg","categories":["Caterers","Grocery","Food","Event Planning & Services","Party & Event Planning","Specialty Food"],"city":"Las Vegas","hours":["Monday 0:0-0:0","Tuesday 0:0-0:0","Wednesday 0:0-0:0","Thursday 0:0-0:0","Friday 0:0-0:0","Saturday 0:0-0:0","Sunday 0:0-0:0"],"is_open":1,"latitude":36.1922841,"longitude":-115.1592718,"name":"Cut and Taste","neighborhood":"","postal_code":"89106","review_count":9,"stars":5.0,"state":"NV","type":"business"}
{"address":"979 Bloor Street W","attributes":["Alcohol: none","Ambience: {'romantic': False, 'intimate': False, 'classy': False, 'hipster': False, 'touristy': False, 'trendy': False, 'upscale': False, 'casual': False}","BikeParking: True","BusinessAcceptsCreditCards: True","BusinessParking: {'garage': False, 'street': False, 'validated': False, 'lot': False, 'valet': False}","Caters: True","GoodForKids: True","GoodForMeal: {'dessert': False, 'latenight': False, 'lunch': False, 'dinner': False, 'breakfast': False, 'brunch': False}","HasTV: True","NoiseLevel: quiet","OutdoorSeating: False","RestaurantsAttire: casual","RestaurantsDelivery: True","RestaurantsGoodForGroups: True","RestaurantsPriceRange2: 1","RestaurantsReservations: False","RestaurantsTableService: False","RestaurantsTakeOut: True","WiFi: free"],"business_id":"EDqCEAGXVGCH4FJXgqtjqg","categories":["Restaurants","Pizza","Chicken Wings","Italian"],"city":"Toronto","hours":["Monday 11:0-2:0","Tuesday 11:0-2:0","Wednesday 11:0-2:0","Thursday 11:0-3:0","Friday 11:0-3:0","Saturday 11:0-3:0","Sunday 11:0-2:0"],"is_open":1,"latitude":43.661054,"longitude":-79.429089,"name":"Pizza Pizza","neighborhood":"Dufferin Grove","postal_code":"M6H 1L5","review_count":7,"stars":2.5,"state":"ON","type":"business"}
{"address":"7014 Steubenville Pike","attributes":["AcceptsInsurance: False","BusinessAcceptsCreditCards: True","BusinessParking: {'garage': False, 'street': False, 'validated': False, 'lot': True, 'valet': False}","ByAppointmentOnly: True","HairSpecializesIn: {'coloring': False, 'africanamerican': False, 'curly': False, 'perms': False, 'kids': False, 'extensions': False, 'asian': False, 'straightperms': False}","RestaurantsPriceRange2: 3"],"business_id":"cnGIivYRLxpF7tBVR_JwWA","categories":["Hair Removal","Beauty & Spas","Blow Dry/Out Services","Hair Stylists","Hair Extensions","Massage","Permanent Makeup","Waxing","Hair Salons"],"city":"Oakdale","hours":["Tuesday 10:0-21:0","Wednesday 10:0-21:0","Thursday 10:0-21:0","Friday 10:0-18:0","Saturday 9:0-16:0"],"is_open":1,"latitude":40.4445439533,"longitude":-80.1745398943,"name":"Plush Salon and Spa","neighborhood":"","postal_code":"15071","review_count":4,"stars":4.0,"state":"PA","type":"business"}
{"address":"321 Jarvis Street","attributes":["BusinessAcceptsCreditCards: True","RestaurantsPriceRange2: 2","WiFi: free"],"business_id":"cdk-qqJ71q6P7TJTww_DSA","categories":["Hotels & Travel","Event Planning & Services","Hotels"],"city":"Toronto","is_open":1,"latitude":43.6598286,"longitude":-79.3754006,"name":"Comfort Inn","neighborhood":"Downtown Core","postal_code":"M5B 2C2","review_count":8,"stars":3.0,"state":"ON","type":"business"}
